{"latest":[{"event_id":"5421","site_id":"20","event_start":"2018-08-07 17:00:00","validity":"2018-08-16 08:00:00","status":"on-going","id":"20","name":"lab","sitio":"Labey","barangay":"Ambuklao","municipality":"Bokod","province":"Benguet","region":"CAR","latitude":"16.47041","longitude":"120.70551","households":"5 households (19 residents), Multipurpose hall","season":"2","latest_release_id":"19385","data_timestamp":"2018-08-15 07:30:00","release_time":"15 August 2018<br>08:00","internal_alert_level":"A1-R","latest_trigger_id":"6581","trigger_type":"R","trigger_timestamp":"2018-08-15 07:30:00"},{"event_id":"5423","site_id":"28","event_start":"2018-08-07 17:30:00","validity":"2018-08-16 08:00:00","status":"on-going","id":"28","name":"mam","sitio":"Mamuyod","barangay":"Ambassador","municipality":"Tublay","province":"Benguet","region":"CAR","latitude":"16.48857","longitude":"120.69161","households":"78 households (369 residents), church","season":"2","latest_release_id":"19386","data_timestamp":"2018-08-15 07:30:00","release_time":"15 August 2018<br>08:01","internal_alert_level":"A1-R","latest_trigger_id":"6582","trigger_type":"R","trigger_timestamp":"2018-08-15 07:30:00"},{"event_id":"5469","site_id":"34","event_start":"2018-08-11 09:30:00","validity":"2018-08-16 08:00:00","status":"on-going","id":"34","name":"nag","sitio":"Purok 6","barangay":"Nagyubuyuban","municipality":"San Fernando City","province":"La Union","region":"I","latitude":"16.62676","longitude":"120.41722","households":"At least 6 households, provincial road","season":"2","latest_release_id":"19382","data_timestamp":"2018-08-15 07:30:00","release_time":"15 August 2018<br>07:58","internal_alert_level":"A2-sg0R","latest_trigger_id":"6578","trigger_type":"s","trigger_timestamp":"2018-08-15 07:30:00"},{"event_id":"5470","site_id":"2","event_start":"2018-08-11 14:30:00","validity":"2018-08-16 08:00:00","status":"on-going","id":"2","name":"bak","sitio":null,"barangay":"Poblacion","municipality":"Bakun","province":"Benguet","region":"CAR","latitude":"16.79070","longitude":"120.66163","households":"At least 37 households, chapel","season":"2","latest_release_id":"19384","data_timestamp":"2018-08-15 07:30:00","release_time":"15 August 2018<br>08:00","internal_alert_level":"ND-R","latest_trigger_id":"6580","trigger_type":"R","trigger_timestamp":"2018-08-15 07:30:00"},{"event_id":"5471","site_id":"17","event_start":"2018-08-11 14:30:00","validity":"2018-08-17 08:00:00","status":"on-going","id":"17","name":"imu","sitio":null,"barangay":"Immuli","municipality":"Pidigan","province":"Abra","region":"CAR","latitude":"17.52148","longitude":"120.60490","households":"16 households ","season":"2","latest_release_id":"19388","data_timestamp":"2018-08-15 09:30:00","release_time":"15 August 2018<br>09:40","internal_alert_level":"A3-MR","latest_trigger_id":"6584","trigger_type":"M","trigger_timestamp":"2018-08-15 07:00:00"},{"event_id":"5472","site_id":"43","event_start":"2018-08-11 16:00:00","validity":"2018-08-16 04:00:00","status":"on-going","id":"43","name":"sag","sitio":null,"barangay":"Antadao","municipality":"Sagada","province":"Mt. Province","region":"CAR","latitude":"17.08263","longitude":"120.92476","households":"17 households (45 residents), barangay hall, Antadao Mission Church, Staunton Road","season":"2","latest_release_id":"19383","data_timestamp":"2018-08-15 07:30:00","release_time":"15 August 2018<br>08:00","internal_alert_level":"A1-R","latest_trigger_id":"6569","trigger_type":"R","trigger_timestamp":"2018-08-15 01:30:00"},{"event_id":"5473","site_id":"49","event_start":"2018-08-13 05:00:00","validity":"2018-08-17 08:00:00","status":"on-going","id":"49","name":"tue","sitio":null,"barangay":"Tue","municipality":"Tadian","province":"Mt. Province","region":"CAR","latitude":"16.97229","longitude":"120.82861","households":"At least 56 households (280 residents), barangay hall, Tue Elementary School, day care center, church","season":"2","latest_release_id":"19378","data_timestamp":"2018-08-15 07:30:00","release_time":"15 August 2018<br>07:46","internal_alert_level":"A3-SR","latest_trigger_id":"6575","trigger_type":"s","trigger_timestamp":"2018-08-15 07:30:00"},{"event_id":"5474","site_id":"45","event_start":"2018-08-13 18:30:00","validity":"2018-08-16 08:00:00","status":"on-going","id":"45","name":"sin","sitio":"Sinipsip","barangay":"Amgaleyguey","municipality":"Buguias","province":"Benguet","region":"CAR","latitude":"16.72301","longitude":"120.78151","households":"18 households (89 residents), barangay hall, 3 chapels","season":"2","latest_release_id":"19380","data_timestamp":"2018-08-15 07:30:00","release_time":"15 August 2018<br>07:51","internal_alert_level":"A1-R","latest_trigger_id":"6576","trigger_type":"R","trigger_timestamp":"2018-08-15 07:30:00"},{"event_id":"5475","site_id":"42","event_start":"2018-08-13 19:30:00","validity":"2018-08-16 08:00:00","status":"on-going","id":"42","name":"pug","sitio":"Longlong","barangay":"Puguis","municipality":"La Trinidad","province":"Benguet","region":"CAR","latitude":"16.44655","longitude":"120.57063","households":"At least 50 households, Pico-Lamtang Road","season":"2","latest_release_id":"19381","data_timestamp":"2018-08-15 07:30:00","release_time":"15 August 2018<br>07:54","internal_alert_level":"ND-R","latest_trigger_id":"6577","trigger_type":"R","trigger_timestamp":"2018-08-15 07:30:00"}],"extended":[],"overdue":[]}